[
{
  "id":"00",
  "name": "Tumirada Bat√°n",
  "cp": 28011,
  "city": "Madrid",
  "province": "Madrid",
  "phone": 914701531,
  "url": "https://app.smartcalendar.es/api/somosopticos/index.php?hash=qiwerubfhb23498r&id=123",
  "geometry":[
    40.4049821, -3.7464155
  ]
},
{
  "id":"01",
  "name": "Tumirada Laguna",
  "cp": 28025,
  "city": "Madrid",
  "province": "Madrid",
  "phone": 914628751,
  "url": "https://app.smartcalendar.es/api/somosopticos/index.php?hash=qiwerubfhb23498r&id=131",
  "geometry":[
    40.378739, -3.7358924
  ]
},
{
  "id":"02",
  "name" : "Tumirada Reina Victoria",
  "cp" : 28003,
  "city" : "Madrid",
  "province" : "Madrid",
  "phone" : 915332930,
  "url" : "https://app.smartcalendar.es/api/somosopticos/index.php?hash=qiwerubfhb23498r&id=132",
  "geometry":[
    40.44587, -3.71241
  ]
},
{
  "id":"03",
  "name" : "Tumirada Principe de Vergara",
  "cp" : 28016,
  "city" : "Madrid",
  "province" : "Madrid",
  "phone" : 914582702,
  "url" : "https://app.smartcalendar.es/api/somosopticos/index.php?hash=qiwerubfhb23498r&id=133",
  "geometry":[
    40.4556929, -3.6770649
  ]
},
{
  "id":"04",
  "name" : "Tumirada Caleruega",
  "cp" : 28033,
  "city" : "Madrid",
  "province" : "Madrid",
  "phone" : 913029340,
  "url" : "https://app.smartcalendar.es/api/somosopticos/index.php?hash=qiwerubfhb23498r&id=134",
  "geometry":[
    40.4771671, -3.669590099999999
  ]
},
{
  "id":"05",
  "name" : "Zamora Castellana",
  "cp" : 28046,
  "city" : "Madrid",
  "province" : "Madrid",
  "phone" : 915558362,
  "url" : "https://app.smartcalendar.es/api/somosopticos/index.php?hash=opzamoras&id=210",
  "geometry":[
    40.4531208, -3.6895411
  ]
},
{
  "id":"06",
  "name" : "Zamora Boadilla",
  "cp" : 28660,
  "city" : "Boadilla del Monte",
  "province" : "Madrid",
  "phone" : 916320597,
  "url" : "https://app.smartcalendar.es/api/somosopticos/index.php?hash=opzamoras&id=211",
  "geometry":[
    40.4069385, -3.8786935
  ]
},
{
  "id":"07",
  "name" : "Optica Mateos",
  "cp" : 28045,
  "city" : "Madrid",
  "province" : "Madrid",
  "phone" : 916494761,
  "url" : "https://app.smartcalendar.es/api/somosopticos/index.php?hash=optmateos&id=469",
  "geometry":[
    40.3915008, -3.6912424
  ]
},
{
  "id":"08",
  "name" : "Optica Marmol",
  "cp" : 28850,
  "city" : "Torrejon de Ardoz",
  "province" : "Madrid",
  "phone" : 916564141,
  "url" : "https://app.smartcalendar.es/api/somosopticos/index.php?hash=optmarmol&id=470",
  "geometry":[
    40.4505571, -3.467796
  ]
}
]